[
  {
    "name":"HARTSFIELD-JACKSON ATLANTA INTERNATIONAL AIRPORT",
    "lat":33.6407,
    "lon":-84.4277,
    "country":"USA",
  },
  {
    "name":"BEIJING CAPITAL INTERNATIONAL AIRPORT",
    "lat":40.0799,
    "lon":116.6031
    "country":"China",
  },
  {
    "name":"LOS ANGELES INTERNATIONAL AIRPORT",
    "lat":33.9416,
    "lon":118.4085
    "country":"USA",
  },
  {
    "name":"TOKYO HANEDA AIRPORT",
    "lat":35.5494,
    "lon":139.7798
    "country":"Japan",
  },
  {
    "name":"DUBAI INTERNATIONAL AIRPORT",
    "lat":25.2532,
    "lon":55.3657
    "country":"United Arab Emirates",
  },
  {
    "name":"O'HARE INTERNATIONAL AIRPORT",
    "lat":41.9742,
    "lon":-87.9073
    "country":"USA",
  },
  {
    "name":"LONDON HEATHROW AIRPORT",
    "lat":51.4700,
    "lon":0.4543
    "country":"England",
  },
  {
    "name":"SHANGHAI PUDONG INTERNATIONAL AIRPORT",
    "lat":31.1443,
    "lon":121.8083
    "country":"China",
  },
  {
    "name":"HONG KONG INTERNATIONAL AIRPORT",
    "lat":22.3080,
    "lon":113.9185
    "country":"Hong Kong",
  },
  {
    "name":"PARIS-CHARLES DE GAULLE AIRPORT",
    "lat":49.0097,
    "lon":2.5479
    "country":"France",
  },
  {
    "name":"DALLAS/FORT WORTH INTERNATIONAL AIRPORT",
    "lat":32.8998,
    "lon":-97.0403
    "country":"USA",
  },
  {
    "name":"GUANGZHOU BAIYUN INTERNATIONAL AIRPORT",
    "lat":23.3959,
    "lon":113.3080
    "country":"China",
  },
  {
    "name":"SEOUL INCHEON INTERNATIONAL AIRPORT",
    "lat":37.4602,
    "lon":126.4407
    "country":"South Korea",
  },
  {
    "name":"AMSTERDAM AIRPORT SCHIPOL",
    "lat":52.3105,
    "lon":4.7683
    "country":"The Netherlands",
  },
  {
    "name":"FRANKFURT AIRPORT",
    "lat":50.0379,
    "lon":8.5622
    "country":"Germany",
  },
  {
    "name":"SINGAPORE CHANGI AIRPORT",
    "lat":1.3644,
    "lon":103.9915
    "country":"Singapore",
  },
  {
    "name":"SUVARNABHUMI AIRPORT",
    "lat":13.6900,
    "lon":100.7501
    "country":"Thailand",
  },
  {
    "name":"DENVER INTERNATIONAL AIRPORT",
    "lat":39.8561,
    "lon":-104.6737
    "country":"USA",
  },
  {
    "name":"INDIRA GANDHI INTERNATIONAL AIRPORT",
    "lat":28.5562,
    "lon":77.1000
    "country":"India",
  },
  {
    "name":"SOEKARNO-HATTA INTERNATIONAL AIRPORT",
    "lat":-6.1275,
    "lon":106.6537
    "country":"Indonesia",
  },
  {
    "name":"JOHN F. KENNEDY INTERNATIONAL AIRPORT",
    "lat":40.6413,
    "lon":-73.7781
    "country":"USA",
  },
  {
    "name":"KUALA LUMPUR INTERNATIONAL AIRPORT",
    "lat":2.7456,
    "lon":101.7072
    "country":"Malaysia",
  },
  {
    "name":"SAN FRANSISCO INTERNATIONAL AIRPORT",
    "lat":37.6213,
    "lon":-122.3790
    "country":"USA",
  }
]